[{"id":"loc_0","name":"Bathhouse ATX","city":"Austin, TX","lat":30.27,"lon":-97.74,"status":"broadcast","coherence":0.92,"venueZoom":15.5,"userCount":6,"sessionsToday":5},{"id":"loc_1","name":"Red Rock Sedona","city":"Sedona, AZ","lat":34.87,"lon":-111.76,"status":"active","coherence":0.81,"venueZoom":15.5,"userCount":6,"sessionsToday":4},{"id":"loc_2","name":"Sierra Tahoe","city":"Lake Tahoe, CA","lat":39.1,"lon":-120.03,"status":"active","coherence":0.74,"venueZoom":15.5,"userCount":6,"sessionsToday":4},{"id":"loc_3","name":"Coherence Lab San Francisco","city":"San Francisco, CA","lat":37.74694492310286,"lon":-122.41271283378825,"status":"dormant","coherence":0.308,"venueZoom":15.5,"userCount":4,"sessionsToday":2},{"id":"loc_4","name":"Vibratorium Oakland","city":"Oakland, CA","lat":37.84070911299437,"lon":-122.23701437796466,"status":"online","coherence":0.426,"venueZoom":15.5,"userCount":5,"sessionsToday":3},{"id":"loc_5","name":"Sanctuary Ojai","city":"Ojai, CA","lat":34.43393995576538,"lon":-119.2376736843586,"status":"online","coherence":0.441,"venueZoom":15.5,"userCount":5,"sessionsToday":3},{"id":"loc_6","name":"The Grove Big Sur","city":"Big Sur, CA","lat":36.29561868634075,"lon":-121.79574262455105,"status":"online","coherence":0.656,"venueZoom":15.5,"userCount":6,"sessionsToday":4},{"id":"loc_7","name":"Deep Rest Joshua Tree","city":"Joshua Tree, CA","lat":34.144984869016334,"lon":-116.2933379507158,"status":"dormant","coherence":0.254,"venueZoom":15.5,"userCount":4,"sessionsToday":2},{"id":"loc_8","name":"Frequency House San Diego","city":"San Diego, CA","lat":32.73953294832259,"lon":-117.2116922953911,"status":"dormant","coherence":0.16,"venueZoom":15.5,"userCount":3,"sessionsToday":1},{"id":"loc_9","name":"Still Point Sacramento","city":"Sacramento, CA","lat":38.6250995942764,"lon":-121.45547556601464,"status":"online","coherence":0.636,"venueZoom":15.5,"userCount":6,"sessionsToday":4},{"id":"loc_10","name":"Frequency House Nevada City","city":"Nevada City, CA","lat":39.2326902625151,"lon":-121.01960282824002,"status":"online","coherence":0.427,"venueZoom":15.5,"userCount":5,"sessionsToday":3},{"id":"loc_11","name":"Deep Rest Seattle","city":"Seattle, WA","lat":47.5887512268126,"lon":-122.27477644330821,"status":"dormant","coherence":0.306,"venueZoom":15.5,"userCount":4,"sessionsToday":2},{"id":"loc_12","name":"The Grove Portland","city":"Portland, OR","lat":45.46498047045432,"lon":-122.68979157293217,"status":"dormant","coherence":0.393,"venueZoom":15.5,"userCount":4,"sessionsToday":2},{"id":"loc_13","name":"Sanctuary Bend","city":"Bend, OR","lat":44.02240421697498,"lon":-121.30174154574983,"status":"active","coherence":0.722,"venueZoom":15.5,"userCount":6,"sessionsToday":4},{"id":"loc_14","name":"Frequency House Eugene","city":"Eugene, OR","lat":44.098190229125315,"lon":-123.10113053795882,"status":"online","coherence":0.516,"venueZoom":15.5,"userCount":5,"sessionsToday":3},{"id":"loc_15","name":"The Grove Denver","city":"Denver, CO","lat":39.74065361541696,"lon":-105.0126416419819,"status":"online","coherence":0.631,"venueZoom":15.5,"userCount":6,"sessionsToday":4},{"id":"loc_16","name":"Still Point Boulder","city":"Boulder, CO","lat":39.98783824019134,"lon":-105.24255387883633,"status":"dormant","coherence":0.335,"venueZoom":15.5,"userCount":4,"sessionsToday":2},{"id":"loc_17","name":"The Grove Telluride","city":"Telluride, CO","lat":37.99329930247739,"lon":-107.80096098104492,"status":"online","coherence":0.616,"venueZoom":15.5,"userCount":6,"sessionsToday":4},{"id":"loc_18","name":"Sound Temple Salt Lake City","city":"Salt Lake City, UT","lat":40.808486162275074,"lon":-111.83458180126735,"status":"dormant","coherence":0.387,"venueZoom":15.5,"userCount":4,"sessionsToday":2},{"id":"loc_19","name":"Vibratorium Boise","city":"Boise, ID","lat":43.561547658741475,"lon":-116.15186239716596,"status":"online","coherence":0.459,"venueZoom":15.5,"userCount":5,"sessionsToday":3},{"id":"loc_20","name":"Sound Temple Santa Fe","city":"Santa Fe, NM","lat":35.699756062077356,"lon":-105.88044840723276,"status":"online","coherence":0.493,"venueZoom":15.5,"userCount":5,"sessionsToday":3},{"id":"loc_21","name":"Vibratorium Taos","city":"Taos, NM","lat":36.44341445928439,"lon":-105.57681661812587,"status":"online","coherence":0.572,"venueZoom":15.5,"userCount":5,"sessionsToday":3},{"id":"loc_22","name":"Vibratorium Phoenix","city":"Phoenix, AZ","lat":33.42822343211621,"lon":-112.09162201651371,"status":"online","coherence":0.565,"venueZoom":15.5,"userCount":5,"sessionsToday":3},{"id":"loc_23","name":"Sanctuary Tucson","city":"Tucson, AZ","lat":32.26385675316676,"lon":-110.98428020481951,"status":"online","coherence":0.589,"venueZoom":15.5,"userCount":6,"sessionsToday":4},{"id":"loc_24","name":"Frequency House Marfa","city":"Marfa, TX","lat":30.34301608215086,"lon":-104.02520883820019,"status":"online","coherence":0.678,"venueZoom":15.5,"userCount":6,"sessionsToday":4},{"id":"loc_25","name":"Frequency House Dallas","city":"Dallas, TX","lat":32.72719176311046,"lon":-96.84747420770115,"status":"dormant","coherence":0.24,"venueZoom":15.5,"userCount":4,"sessionsToday":2},{"id":"loc_26","name":"Tone Studio Houston","city":"Houston, TX","lat":29.79464486377314,"lon":-95.41479867397808,"status":"online","coherence":0.402,"venueZoom":15.5,"userCount":4,"sessionsToday":2},{"id":"loc_27","name":"Coherence Lab San Antonio","city":"San Antonio, TX","lat":29.422457037959248,"lon":-98.48524360732175,"status":"online","coherence":0.509,"venueZoom":15.5,"userCount":5,"sessionsToday":3},{"id":"loc_28","name":"Coherence Lab New Orleans","city":"New Orleans, LA","lat":29.90079703516327,"lon":-90.08669430069625,"status":"online","coherence":0.457,"venueZoom":15.5,"userCount":5,"sessionsToday":3},{"id":"loc_29","name":"Vibratorium Nashville","city":"Nashville, TN","lat":36.13362361358478,"lon":-86.82187855238095,"status":"online","coherence":0.421,"venueZoom":15.5,"userCount":5,"sessionsToday":3},{"id":"loc_30","name":"Tone Studio Asheville","city":"Asheville, NC","lat":35.606925464402885,"lon":-82.5933721095696,"status":"online","coherence":0.477,"venueZoom":15.5,"userCount":5,"sessionsToday":3},{"id":"loc_31","name":"The Field Charlotte","city":"Charlotte, NC","lat":35.24681185188703,"lon":-80.82102350200526,"status":"online","coherence":0.628,"venueZoom":15.5,"userCount":6,"sessionsToday":4},{"id":"loc_32","name":"Tone Studio Raleigh","city":"Raleigh, NC","lat":35.790682087251916,"lon":-78.68233750033193,"status":"online","coherence":0.503,"venueZoom":15.5,"userCount":5,"sessionsToday":3},{"id":"loc_33","name":"Resonance Room Charleston","city":"Charleston, SC","lat":32.770848833974455,"lon":-79.90351971165278,"status":"online","coherence":0.559,"venueZoom":15.5,"userCount":5,"sessionsToday":3},{"id":"loc_34","name":"Resonance Room Savannah","city":"Savannah, GA","lat":32.03646468502469,"lon":-81.06529539121316,"status":"dormant","coherence":0.305,"venueZoom":15.5,"userCount":4,"sessionsToday":2},{"id":"loc_35","name":"The Chamber Atlanta","city":"Atlanta, GA","lat":33.69994370740838,"lon":-84.40766450886615,"status":"online","coherence":0.586,"venueZoom":15.5,"userCount":6,"sessionsToday":4},{"id":"loc_36","name":"Still Point Miami","city":"Miami, FL","lat":25.759735645083712,"lon":-80.22005184411071,"status":"online","coherence":0.414,"venueZoom":15.5,"userCount":5,"sessionsToday":3},{"id":"loc_37","name":"Frequency House Orlando","city":"Orlando, FL","lat":28.58951732370071,"lon":-81.43071791130117,"status":"online","coherence":0.614,"venueZoom":15.5,"userCount":6,"sessionsToday":4},{"id":"loc_38","name":"Deep Rest Chicago","city":"Chicago, IL","lat":41.90502692406066,"lon":-87.60406869923696,"status":"online","coherence":0.516,"venueZoom":15.5,"userCount":5,"sessionsToday":3},{"id":"loc_39","name":"Deep Rest Madison","city":"Madison, WI","lat":43.06559389711358,"lon":-89.35551469051279,"status":"online","coherence":0.486,"venueZoom":15.5,"userCount":5,"sessionsToday":3},{"id":"loc_40","name":"Sound Temple Minneapolis","city":"Minneapolis, MN","lat":45.024083275804294,"lon":-93.29139545389451,"status":"online","coherence":0.602,"venueZoom":15.5,"userCount":6,"sessionsToday":4},{"id":"loc_41","name":"The Field Ann Arbor","city":"Ann Arbor, MI","lat":42.31392036626116,"lon":-83.71114688902162,"status":"online","coherence":0.608,"venueZoom":15.5,"userCount":6,"sessionsToday":4},{"id":"loc_42","name":"Tone Studio Detroit","city":"Detroit, MI","lat":42.35714356136508,"lon":-83.05726088693365,"status":"online","coherence":0.618,"venueZoom":15.5,"userCount":6,"sessionsToday":4},{"id":"loc_43","name":"Frequency House Kansas City","city":"Kansas City, MO","lat":39.11905328421854,"lon":-94.61353816675954,"status":"online","coherence":0.414,"venueZoom":15.5,"userCount":5,"sessionsToday":3},{"id":"loc_44","name":"The Chamber St. Louis","city":"St. Louis, MO","lat":38.655027203960344,"lon":-90.20098463227973,"status":"active","coherence":0.752,"venueZoom":15.5,"userCount":6,"sessionsToday":4},{"id":"loc_45","name":"The Field Boston","city":"Boston, MA","lat":42.41588553526439,"lon":-71.10024014629424,"status":"dormant","coherence":0.289,"venueZoom":15.5,"userCount":4,"sessionsToday":2},{"id":"loc_46","name":"Frequency House Philadelphia","city":"Philadelphia, PA","lat":39.91692196200602,"lon":-75.14027648651972,"status":"online","coherence":0.699,"venueZoom":15.5,"userCount":6,"sessionsToday":4},{"id":"loc_47","name":"Tone Studio Pittsburgh","city":"Pittsburgh, PA","lat":40.41037308580242,"lon":-79.95663337671198,"status":"online","coherence":0.535,"venueZoom":15.5,"userCount":5,"sessionsToday":3},{"id":"loc_48","name":"Heart Space Washington","city":"Washington, DC","lat":38.89393442971632,"lon":-77.02429634319618,"status":"online","coherence":0.517,"venueZoom":15.5,"userCount":5,"sessionsToday":3},{"id":"loc_49","name":"Vibratorium Richmond","city":"Richmond, VA","lat":37.589509277967736,"lon":-77.4643563207332,"status":"dormant","coherence":0.194,"venueZoom":15.5,"userCount":3,"sessionsToday":1},{"id":"loc_50","name":"Tone Studio Burlington","city":"Burlington, VT","lat":44.52784853159449,"lon":-73.17900433179922,"status":"dormant","coherence":0.171,"venueZoom":15.5,"userCount":3,"sessionsToday":1},{"id":"loc_51","name":"Deep Rest Portland","city":"Portland, ME","lat":43.6413834731467,"lon":-70.22929318858311,"status":"dormant","coherence":0.168,"venueZoom":15.5,"userCount":3,"sessionsToday":1},{"id":"loc_52","name":"Vibratorium Woodstock","city":"Woodstock, NY","lat":42.01743935494684,"lon":-74.14328505170532,"status":"dormant","coherence":0.19,"venueZoom":15.5,"userCount":3,"sessionsToday":1},{"id":"loc_53","name":"Tone Studio Ithaca","city":"Ithaca, NY","lat":42.386951270215214,"lon":-76.48609819175675,"status":"active","coherence":0.754,"venueZoom":15.5,"userCount":6,"sessionsToday":4},{"id":"loc_54","name":"Tone Studio Hudson","city":"Hudson, NY","lat":42.28441759517416,"lon":-73.76115113565699,"status":"active","coherence":0.895,"venueZoom":15.5,"userCount":7,"sessionsToday":5},{"id":"loc_55","name":"The Hum New York","city":"New York, NY","lat":40.68981015088968,"lon":-73.99655002164654,"status":"online","coherence":0.526,"venueZoom":15.5,"userCount":5,"sessionsToday":3},{"id":"loc_56","name":"Sound Temple Brooklyn","city":"Brooklyn, NY","lat":40.675874570310114,"lon":-73.90089424656703,"status":"dormant","coherence":0.384,"venueZoom":15.5,"userCount":4,"sessionsToday":2},{"id":"loc_57","name":"Sound Temple Los Angeles","city":"Los Angeles, CA","lat":34.0823785974551,"lon":-118.19381165369413,"status":"online","coherence":0.454,"venueZoom":15.5,"userCount":5,"sessionsToday":3},{"id":"loc_58","name":"The Field San Francisco","city":"San Francisco, CA","lat":37.729692140026025,"lon":-122.40690411903896,"status":"online","coherence":0.429,"venueZoom":15.5,"userCount":5,"sessionsToday":3},{"id":"loc_59","name":"Heart Space Oakland","city":"Oakland, CA","lat":37.80683226113207,"lon":-122.2882138240151,"status":"dormant","coherence":0.24,"venueZoom":15.5,"userCount":4,"sessionsToday":2},{"id":"loc_60","name":"The Hum Ojai","city":"Ojai, CA","lat":34.449474244564776,"lon":-119.26937125712632,"status":"online","coherence":0.409,"venueZoom":15.5,"userCount":5,"sessionsToday":3},{"id":"loc_61","name":"The Grove Big Sur","city":"Big Sur, CA","lat":36.22541696056724,"lon":-121.81243511673995,"status":"online","coherence":0.48,"venueZoom":15.5,"userCount":5,"sessionsToday":3},{"id":"loc_62","name":"The Field Joshua Tree","city":"Joshua Tree, CA","lat":34.17538918260485,"lon":-116.34334434678779,"status":"online","coherence":0.402,"venueZoom":15.5,"userCount":4,"sessionsToday":2},{"id":"loc_63","name":"Sound Temple San Diego","city":"San Diego, CA","lat":32.67391089640557,"lon":-117.2065235922858,"status":"active","coherence":0.854,"venueZoom":15.5,"userCount":7,"sessionsToday":5},{"id":"loc_64","name":"The Chamber Sacramento","city":"Sacramento, CA","lat":38.57274416972883,"lon":-121.49634353677742,"status":"dormant","coherence":0.246,"venueZoom":15.5,"userCount":4,"sessionsToday":2},{"id":"loc_65","name":"The Chamber Nevada City","city":"Nevada City, CA","lat":39.22830109202303,"lon":-121.01168540759012,"status":"active","coherence":0.775,"venueZoom":15.5,"userCount":7,"sessionsToday":5},{"id":"loc_66","name":"Still Point Seattle","city":"Seattle, WA","lat":47.63399220027029,"lon":-122.27609605580568,"status":"online","coherence":0.522,"venueZoom":15.5,"userCount":5,"sessionsToday":3},{"id":"loc_67","name":"Resonance Room Portland","city":"Portland, OR","lat":45.55808124676347,"lon":-122.72282776357606,"status":"online","coherence":0.401,"venueZoom":15.5,"userCount":4,"sessionsToday":2},{"id":"loc_68","name":"Still Point Bend","city":"Bend, OR","lat":44.07449194390327,"lon":-121.29456391128711,"status":"online","coherence":0.54,"venueZoom":15.5,"userCount":5,"sessionsToday":3},{"id":"loc_69","name":"The Field Eugene","city":"Eugene, OR","lat":44.00495255661197,"lon":-123.11918723132462,"status":"online","coherence":0.419,"venueZoom":15.5,"userCount":5,"sessionsToday":3},{"id":"loc_70","name":"Resonance Room Denver","city":"Denver, CO","lat":39.76924611911178,"lon":-104.9937350512389,"status":"online","coherence":0.658,"venueZoom":15.5,"userCount":6,"sessionsToday":4},{"id":"loc_71","name":"The Chamber Boulder","city":"Boulder, CO","lat":40.01681893203407,"lon":-105.28717514726333,"status":"online","coherence":0.415,"venueZoom":15.5,"userCount":5,"sessionsToday":3},{"id":"loc_72","name":"Vibratorium Telluride","city":"Telluride, CO","lat":37.88689322265796,"lon":-107.85024284680374,"status":"dormant","coherence":0.324,"venueZoom":15.5,"userCount":4,"sessionsToday":2},{"id":"loc_73","name":"Deep Rest Salt Lake City","city":"Salt Lake City, UT","lat":40.75254944931716,"lon":-111.88197566979565,"status":"dormant","coherence":0.08,"venueZoom":15.5,"userCount":3,"sessionsToday":1},{"id":"loc_74","name":"Tone Studio Boise","city":"Boise, ID","lat":43.62347262765281,"lon":-116.25013790903613,"status":"active","coherence":0.778,"venueZoom":15.5,"userCount":7,"sessionsToday":5},{"id":"loc_75","name":"The Grove Santa Fe","city":"Santa Fe, NM","lat":35.72253923431039,"lon":-105.91040721744298,"status":"dormant","coherence":0.381,"venueZoom":15.5,"userCount":4,"sessionsToday":2},{"id":"loc_76","name":"Coherence Lab Taos","city":"Taos, NM","lat":36.39509768524207,"lon":-105.62374947320669,"status":"online","coherence":0.519,"venueZoom":15.5,"userCount":5,"sessionsToday":3},{"id":"loc_77","name":"Sanctuary Phoenix","city":"Phoenix, AZ","lat":33.439439371302726,"lon":-112.05344774515368,"status":"dormant","coherence":0.396,"venueZoom":15.5,"userCount":4,"sessionsToday":2},{"id":"loc_78","name":"Coherence Lab Tucson","city":"Tucson, AZ","lat":32.271095483433456,"lon":-110.91885756927542,"status":"dormant","coherence":0.301,"venueZoom":15.5,"userCount":4,"sessionsToday":2},{"id":"loc_79","name":"Sound Temple Marfa","city":"Marfa, TX","lat":30.293458999060093,"lon":-104.01908053617925,"status":"online","coherence":0.629,"venueZoom":15.5,"userCount":6,"sessionsToday":4},{"id":"loc_80","name":"Still Point Dallas","city":"Dallas, TX","lat":32.799903432661665,"lon":-96.84432467637583,"status":"online","coherence":0.453,"venueZoom":15.5,"userCount":5,"sessionsToday":3},{"id":"loc_81","name":"Heart Space Houston","city":"Houston, TX","lat":29.791431227819995,"lon":-95.35789235900157,"status":"online","coherence":0.462,"venueZoom":15.5,"userCount":5,"sessionsToday":3},{"id":"loc_82","name":"The Chamber San Antonio","city":"San Antonio, TX","lat":29.461049821376804,"lon":-98.50760043634101,"status":"dormant","coherence":0.331,"venueZoom":15.5,"userCount":4,"sessionsToday":2},{"id":"loc_83","name":"Sound Temple New Orleans","city":"New Orleans, LA","lat":29.962102798018602,"lon":-90.04345184293575,"status":"online","coherence":0.671,"venueZoom":15.5,"userCount":6,"sessionsToday":4},{"id":"loc_84","name":"Frequency House Nashville","city":"Nashville, TN","lat":36.14753759123385,"lon":-86.72589578738436,"status":"online","coherence":0.552,"venueZoom":15.5,"userCount":5,"sessionsToday":3},{"id":"loc_85","name":"The Grove Asheville","city":"Asheville, NC","lat":35.64046732598916,"lon":-82.60115431140177,"status":"dormant","coherence":0.279,"venueZoom":15.5,"userCount":4,"sessionsToday":2},{"id":"loc_86","name":"The Field Charlotte","city":"Charlotte, NC","lat":35.24938852760009,"lon":-80.84577578443103,"status":"online","coherence":0.44,"venueZoom":15.5,"userCount":5,"sessionsToday":3},{"id":"loc_87","name":"The Grove Raleigh","city":"Raleigh, NC","lat":35.764478811528534,"lon":-78.67432579972781,"status":"online","coherence":0.563,"venueZoom":15.5,"userCount":5,"sessionsToday":3},{"id":"loc_88","name":"The Grove Charleston","city":"Charleston, SC","lat":32.75277523573488,"lon":-79.87799537612126,"status":"dormant","coherence":0.256,"venueZoom":15.5,"userCount":4,"sessionsToday":2},{"id":"loc_89","name":"Sound Temple Savannah","city":"Savannah, GA","lat":32.075290365656834,"lon":-81.0662430142332,"status":"dormant","coherence":0.311,"venueZoom":15.5,"userCount":4,"sessionsToday":2},{"id":"loc_90","name":"Sound Temple Atlanta","city":"Atlanta, GA","lat":33.809625804238024,"lon":-84.36368301663548,"status":"online","coherence":0.562,"venueZoom":15.5,"userCount":5,"sessionsToday":3},{"id":"loc_91","name":"The Chamber Miami","city":"Miami, FL","lat":25.779815570227804,"lon":-80.16389946690761,"status":"dormant","coherence":0.364,"venueZoom":15.5,"userCount":4,"sessionsToday":2},{"id":"loc_92","name":"The Field Orlando","city":"Orlando, FL","lat":28.53378756135702,"lon":-81.43193438062444,"status":"online","coherence":0.649,"venueZoom":15.5,"userCount":6,"sessionsToday":4},{"id":"loc_93","name":"Deep Rest Chicago","city":"Chicago, IL","lat":41.82545526467264,"lon":-87.6829339747969,"status":"active","coherence":0.774,"venueZoom":15.5,"userCount":7,"sessionsToday":5},{"id":"loc_94","name":"Coherence Lab Madison","city":"Madison, WI","lat":43.056446508029474,"lon":-89.39403530987911,"status":"online","coherence":0.471,"venueZoom":15.5,"userCount":5,"sessionsToday":3},{"id":"loc_95","name":"Sound Temple Minneapolis","city":"Minneapolis, MN","lat":44.9516070047114,"lon":-93.31347410193644,"status":"online","coherence":0.487,"venueZoom":15.5,"userCount":5,"sessionsToday":3},{"id":"loc_96","name":"Frequency House Ann Arbor","city":"Ann Arbor, MI","lat":42.22688470116817,"lon":-83.72391258312389,"status":"active","coherence":0.849,"venueZoom":15.5,"userCount":7,"sessionsToday":5},{"id":"loc_97","name":"Frequency House Detroit","city":"Detroit, MI","lat":42.389182182373474,"lon":-82.99894768225029,"status":"online","coherence":0.698,"venueZoom":15.5,"userCount":6,"sessionsToday":4},{"id":"loc_98","name":"The Field Kansas City","city":"Kansas City, MO","lat":39.14359817162156,"lon":-94.57962831662968,"status":"online","coherence":0.55,"venueZoom":15.5,"userCount":5,"sessionsToday":3},{"id":"loc_99","name":"Still Point St. Louis","city":"St. Louis, MO","lat":38.60631994314492,"lon":-90.16154947983101,"status":"online","coherence":0.518,"venueZoom":15.5,"userCount":5,"sessionsToday":3}]